[{"stop_id":5697,"stop_name":"24 de Agosto","stop_lat":41.1488,"stop_lon":-8.598349},{"stop_id":5698,"stop_name":"Baguim","stop_lat":41.18557,"stop_lon":-8.545892},{"stop_id":5699,"stop_name":"Bolh\u00e3o","stop_lat":41.14978,"stop_lon":-8.605901},{"stop_id":5700,"stop_name":"Brito Capelo","stop_lat":41.18391,"stop_lon":-8.691469},{"stop_id":5701,"stop_name":"C\u00e2mara Matosinhos","stop_lat":41.1807,"stop_lon":-8.681227},{"stop_id":5702,"stop_name":"Campainha","stop_lat":41.18345,"stop_lon":-8.553955},{"stop_id":5703,"stop_name":"Campanh\u00e3","stop_lat":41.15054,"stop_lon":-8.586245},{"stop_id":5704,"stop_name":"Carolina Michaelis","stop_lat":41.15858,"stop_lon":-8.622246},{"stop_id":5705,"stop_name":"Carreira","stop_lat":41.17982,"stop_lon":-8.543604},{"stop_id":5706,"stop_name":"Casa da M\u00fasica","stop_lat":41.16058,"stop_lon":-8.628282},{"stop_id":5707,"stop_name":"Contumil","stop_lat":41.16571,"stop_lon":-8.578639},{"stop_id":5708,"stop_name":"Est\u00e1dio do Drag\u00e3o","stop_lat":41.16072,"stop_lon":-8.582416},{"stop_id":5709,"stop_name":"Est\u00e1dio do Mar","stop_lat":41.18577,"stop_lon":-8.661189},{"stop_id":5710,"stop_name":"F\u00e2nzeres","stop_lat":41.1713,"stop_lon":-8.542938},{"stop_id":5711,"stop_name":"Francos","stop_lat":41.16555,"stop_lon":-8.636347},{"stop_id":5712,"stop_name":"Hero\u00edsmo","stop_lat":41.1467,"stop_lon":-8.592978},{"stop_id":5713,"stop_name":"Lapa","stop_lat":41.15711,"stop_lon":-8.616723},{"stop_id":5714,"stop_name":"Levada","stop_lat":41.17576,"stop_lon":-8.56212},{"stop_id":5715,"stop_name":"Matosinhos Sul","stop_lat":41.18017,"stop_lon":-8.688553},{"stop_id":5716,"stop_name":"Mercado","stop_lat":41.18748,"stop_lon":-8.693391},{"stop_id":5717,"stop_name":"Nasoni","stop_lat":41.17077,"stop_lon":-8.577317},{"stop_id":5718,"stop_name":"Nau Vit\u00f3ria","stop_lat":41.17412,"stop_lon":-8.573534},{"stop_id":5719,"stop_name":"Parque de Real","stop_lat":41.17911,"stop_lon":-8.673546},{"stop_id":5720,"stop_name":"Pedro Hispano","stop_lat":41.18038,"stop_lon":-8.666232},{"stop_id":5721,"stop_name":"Ramalde","stop_lat":41.17296,"stop_lon":-8.641766},{"stop_id":5722,"stop_name":"Rio Tinto","stop_lat":41.17942,"stop_lon":-8.560264},{"stop_id":5723,"stop_name":"Senhor de Matosinhos","stop_lat":41.18821,"stop_lon":-8.685123},{"stop_id":5724,"stop_name":"Senhora da Hora","stop_lat":41.1881,"stop_lon":-8.654466},{"stop_id":5725,"stop_name":"NorteShopping I Sete Bicas","stop_lat":41.18242,"stop_lon":-8.652149},{"stop_id":5726,"stop_name":"Trindade","stop_lat":41.15228,"stop_lon":-8.609299},{"stop_id":5727,"stop_name":"Vasco da Gama","stop_lat":41.19024,"stop_lon":-8.661037},{"stop_id":5728,"stop_name":"Venda Nova","stop_lat":41.17516,"stop_lon":-8.541962},{"stop_id":5729,"stop_name":"Viso","stop_lat":41.17725,"stop_lon":-8.646498},{"stop_id":5730,"stop_name":"Alto de Pega","stop_lat":41.36464,"stop_lon":-8.745225},{"stop_id":5731,"stop_name":"\u00c1rvore","stop_lat":41.3404,"stop_lon":-8.725555},{"stop_id":5732,"stop_name":"Azurara","stop_lat":41.34597,"stop_lon":-8.728122},{"stop_id":5733,"stop_name":"Crestins","stop_lat":41.23301,"stop_lon":-8.656593},{"stop_id":5734,"stop_name":"Cust\u00f3ias","stop_lat":41.20029,"stop_lon":-8.655559},{"stop_id":5735,"stop_name":"Espa\u00e7o Natureza","stop_lat":41.32122,"stop_lon":-8.718681},{"stop_id":5736,"stop_name":"Esposade","stop_lat":41.21607,"stop_lon":-8.654541},{"stop_id":5737,"stop_name":"Fonte do Cuco","stop_lat":41.19416,"stop_lon":-8.655771},{"stop_id":5739,"stop_name":"Lidador","stop_lat":41.25495,"stop_lon":-8.668018},{"stop_id":5740,"stop_name":"Mindelo","stop_lat":41.31508,"stop_lon":-8.714209},{"stop_id":5741,"stop_name":"Modivas Centro","stop_lat":41.29368,"stop_lon":-8.699238},{"stop_id":5742,"stop_name":"VC Fashion Outlet I Modivas","stop_lat":41.30049,"stop_lon":-8.704004},{"stop_id":5743,"stop_name":"Modivas Sul","stop_lat":41.28525,"stop_lon":-8.693703},{"stop_id":5744,"stop_name":"Pedras Rubras","stop_lat":41.24623,"stop_lon":-8.661807},{"stop_id":5745,"stop_name":"Portas Fronhas","stop_lat":41.36895,"stop_lon":-8.749558},{"stop_id":5746,"stop_name":"P\u00f3voa de Varzim","stop_lat":41.37812,"stop_lon":-8.758081},{"stop_id":5747,"stop_name":"Santa Clara","stop_lat":41.35398,"stop_lon":-8.735826},{"stop_id":5748,"stop_name":"S\u00e3o Br\u00e1s","stop_lat":41.37346,"stop_lon":-8.754122},{"stop_id":5749,"stop_name":"Varziela","stop_lat":41.33422,"stop_lon":-8.720721},{"stop_id":5750,"stop_name":"Verdes","stop_lat":41.23825,"stop_lon":-8.658212},{"stop_id":5752,"stop_name":"Vila do Conde","stop_lat":41.3591,"stop_lon":-8.73987},{"stop_id":5753,"stop_name":"Vilar do Pinheiro","stop_lat":41.2703,"stop_lon":-8.679515},{"stop_id":5754,"stop_name":"Ara\u00fajo","stop_lat":41.21691,"stop_lon":-8.640978},{"stop_id":5755,"stop_name":"C\u00e2ndido dos Reis","stop_lat":41.2007,"stop_lon":-8.649703},{"stop_id":5756,"stop_name":"Cast\u00ealo da Maia","stop_lat":41.26275,"stop_lon":-8.616986},{"stop_id":5757,"stop_name":"Custi\u00f3","stop_lat":41.22234,"stop_lon":-8.638996},{"stop_id":5760,"stop_name":"F\u00f3rum Maia","stop_lat":41.23463,"stop_lon":-8.623937},{"stop_id":5761,"stop_name":"ISMAI","stop_lat":41.26891,"stop_lon":-8.615387},{"stop_id":5762,"stop_name":"Mandim","stop_lat":41.25358,"stop_lon":-8.628308},{"stop_id":5763,"stop_name":"Parque Maia","stop_lat":41.22902,"stop_lon":-8.626897},{"stop_id":5764,"stop_name":"Pias","stop_lat":41.20823,"stop_lon":-8.647122},{"stop_id":5765,"stop_name":"Zona Ind\u00fastrial","stop_lat":41.24397,"stop_lon":-8.628555},{"stop_id":5766,"stop_name":"Aliados","stop_lat":41.14858,"stop_lon":-8.610945},{"stop_id":5767,"stop_name":"C\u00e2mara Gaia","stop_lat":41.12967,"stop_lon":-8.606116},{"stop_id":5768,"stop_name":"Combatentes","stop_lat":41.1653,"stop_lon":-8.598464},{"stop_id":5769,"stop_name":"D. Jo\u00e3o II","stop_lat":41.11966,"stop_lon":-8.60623},{"stop_id":5770,"stop_name":"Faria Guimar\u00e3es","stop_lat":41.15722,"stop_lon":-8.609141},{"stop_id":5771,"stop_name":"General Torres","stop_lat":41.13387,"stop_lon":-8.607489},{"stop_id":5772,"stop_name":"IPO","stop_lat":41.18125,"stop_lon":-8.604521},{"stop_id":5773,"stop_name":"Jardim do Morro","stop_lat":41.13764,"stop_lon":-8.608646},{"stop_id":5774,"stop_name":"Jo\u00e3o de Deus","stop_lat":41.12606,"stop_lon":-8.605627},{"stop_id":5775,"stop_name":"Marqu\u00eas","stop_lat":41.16112,"stop_lon":-8.604272},{"stop_id":5776,"stop_name":"P\u00f3lo Universit\u00e1rio","stop_lat":41.17425,"stop_lon":-8.603607},{"stop_id":5777,"stop_name":"Salgueiros","stop_lat":41.16969,"stop_lon":-8.598744},{"stop_id":5778,"stop_name":"S\u00e3o Bento","stop_lat":41.14494,"stop_lon":-8.610815},{"stop_id":5782,"stop_name":"Aeroporto","stop_lat":41.23708,"stop_lon":-8.669442},{"stop_id":5783,"stop_name":"Botica","stop_lat":41.23752,"stop_lon":-8.665208},{"stop_id":5791,"stop_name":"Hospital S\u00e3o Jo\u00e3o","stop_lat":41.18326,"stop_lon":-8.60224},{"stop_id":5792,"stop_name":"Santo Ov\u00eddio","stop_lat":41.11555,"stop_lon":-8.606555},{"stop_id":5811,"stop_name":"Hospital Santos Silva","stop_lat":41.10576,"stop_lon":-8.591075},{"stop_id":5812,"stop_name":"Manuel Le\u00e3o","stop_lat":41.11066,"stop_lon":-8.599958},{"stop_id":5813,"stop_name":"Vila d'Este","stop_lat":41.09872,"stop_lon":-8.588716}]